[
  {"code":"110101","province":"北京市","city":"北京市","district":"东城区","aliases":["北京东城","东城","北京市东城区"],"longitude":116.418757,"latitude":39.917544},
  {"code":"120101","province":"天津市","city":"天津市","district":"和平区","aliases":["天津和平","和平区","天津市和平区"],"longitude":117.214713,"latitude":39.116884},
  {"code":"130102","province":"河北省","city":"石家庄市","district":"长安区","aliases":["石家庄长安","河北长安","石家庄市长安区"],"longitude":114.548151,"latitude":38.047501},
  {"code":"140107","province":"山西省","city":"太原市","district":"杏花岭区","aliases":["太原杏花岭","太原市杏花岭区"],"longitude":112.570412,"latitude":37.879291},
  {"code":"150102","province":"内蒙古自治区","city":"呼和浩特市","district":"新城区","aliases":["呼和浩特新城","呼市新城","呼和浩特市新城区"],"longitude":111.665544,"latitude":40.858289},
  {"code":"210102","province":"辽宁省","city":"沈阳市","district":"和平区","aliases":["沈阳和平","沈阳市和平区"],"longitude":123.406664,"latitude":41.788074},
  {"code":"220102","province":"吉林省","city":"长春市","district":"南关区","aliases":["长春南关","长春市南关区"],"longitude":125.350173,"latitude":43.864012},
  {"code":"230103","province":"黑龙江省","city":"哈尔滨市","district":"南岗区","aliases":["哈尔滨南岗","哈尔滨市南岗区"],"longitude":126.668784,"latitude":45.759369},
  {"code":"310101","province":"上海市","city":"上海市","district":"黄浦区","aliases":["上海黄浦","黄浦区","上海市黄浦区"],"longitude":121.490317,"latitude":31.222771},
  {"code":"320102","province":"江苏省","city":"南京市","district":"玄武区","aliases":["南京玄武","南京市玄武区"],"longitude":118.797779,"latitude":32.048644},
  {"code":"330106","province":"浙江省","city":"杭州市","district":"西湖区","aliases":["杭州西湖","杭州市西湖区"],"longitude":120.130663,"latitude":30.259654},
  {"code":"340111","province":"安徽省","city":"合肥市","district":"包河区","aliases":["合肥包河","合肥市包河区"],"longitude":117.309519,"latitude":31.795666},
  {"code":"350102","province":"福建省","city":"福州市","district":"鼓楼区","aliases":["福州鼓楼","福州市鼓楼区"],"longitude":119.303469,"latitude":26.082284},
  {"code":"360102","province":"江西省","city":"南昌市","district":"东湖区","aliases":["南昌东湖","南昌市东湖区"],"longitude":115.889675,"latitude":28.698399},
  {"code":"370102","province":"山东省","city":"济南市","district":"历下区","aliases":["济南历下","济南市历下区"],"longitude":117.076228,"latitude":36.66687},
  {"code":"410102","province":"河南省","city":"郑州市","district":"中原区","aliases":["郑州中原","郑州市中原区"],"longitude":113.611576,"latitude":34.748286},
  {"code":"420102","province":"湖北省","city":"武汉市","district":"江岸区","aliases":["武汉江岸","武汉市江岸区"],"longitude":114.309317,"latitude":30.59982},
  {"code":"430102","province":"湖南省","city":"长沙市","district":"芙蓉区","aliases":["长沙芙蓉","长沙市芙蓉区"],"longitude":112.988094,"latitude":28.193106},
  {"code":"440103","province":"广东省","city":"广州市","district":"荔湾区","aliases":["广州荔湾","广州市荔湾区"],"longitude":113.244204,"latitude":23.12592},
  {"code":"450107","province":"广西壮族自治区","city":"南宁市","district":"西乡塘区","aliases":["南宁西乡塘","南宁市西乡塘区"],"longitude":108.306903,"latitude":22.832779},
  {"code":"460105","province":"海南省","city":"海口市","district":"秀英区","aliases":["海口秀英","海口市秀英区"],"longitude":110.293604,"latitude":20.007171},
  {"code":"500103","province":"重庆市","city":"重庆市","district":"渝中区","aliases":["重庆渝中","渝中区","重庆市渝中区"],"longitude":106.56288,"latitude":29.556742},
  {"code":"510104","province":"四川省","city":"成都市","district":"锦江区","aliases":["成都锦江","成都市锦江区"],"longitude":104.082256,"latitude":30.65614},
  {"code":"520102","province":"贵州省","city":"贵阳市","district":"南明区","aliases":["贵阳南明","贵阳市南明区"],"longitude":106.715963,"latitude":26.573743},
  {"code":"530102","province":"云南省","city":"昆明市","district":"五华区","aliases":["昆明五华","昆明市五华区"],"longitude":102.707262,"latitude":25.043635},
  {"code":"540102","province":"西藏自治区","city":"拉萨市","district":"城关区","aliases":["拉萨城关","拉萨市城关区"],"longitude":91.140856,"latitude":29.645554},
  {"code":"610102","province":"陕西省","city":"西安市","district":"新城区","aliases":["西安新城","西安市新城区"],"longitude":108.959903,"latitude":34.266233},
  {"code":"620102","province":"甘肃省","city":"兰州市","district":"城关区","aliases":["兰州城关","兰州市城关区"],"longitude":103.825307,"latitude":36.057464},
  {"code":"630102","province":"青海省","city":"西宁市","district":"城东区","aliases":["西宁城东","西宁市城东区"],"longitude":101.803717,"latitude":36.599744},
  {"code":"640104","province":"宁夏回族自治区","city":"银川市","district":"兴庆区","aliases":["银川兴庆","银川市兴庆区"],"longitude":106.278393,"latitude":38.468067},
  {"code":"650102","province":"新疆维吾尔自治区","city":"乌鲁木齐市","district":"天山区","aliases":["乌鲁木齐天山","乌市天山","乌鲁木齐市天山区"],"longitude":87.631986,"latitude":43.794312},
  {"code":"710101","province":"台湾省","city":"台北市","district":"中正区","aliases":["台北中正","台北市中正区"],"longitude":121.518267,"latitude":25.032404},
  {"code":"810001","province":"香港特别行政区","city":"香港特别行政区","district":"中西区","aliases":["香港中西区","香港中西","港岛中西"],"longitude":114.154374,"latitude":22.281981},
  {"code":"820001","province":"澳门特别行政区","city":"澳门特别行政区","district":"花地玛堂区","aliases":["澳门花地玛","澳门半岛"],"longitude":113.552965,"latitude":22.208086},
  {"code":"320509","province":"江苏省","city":"苏州市","district":"吴江区","aliases":["苏州吴江","吴江","苏州市吴江区"],"longitude":120.638317,"latitude":31.159815},
  {"code":"330110","province":"浙江省","city":"杭州市","district":"余杭区","aliases":["杭州余杭","余杭","杭州市余杭区"],"longitude":120.29986,"latitude":30.419891},
  {"code":"440306","province":"广东省","city":"深圳市","district":"宝安区","aliases":["深圳宝安","宝安","深圳市宝安区"],"longitude":113.883831,"latitude":22.55329}
]
